{
"type": "FeatureCollection",
"crs": { "type": "name", "properties": { "name": "urn:ogc:def:crs:OGC:1.3:CRS84" } },

"features": [
{ "type": "Feature", "properties": { "id": "c2fc8f97-8e6f-49e5-8bb1-b485d64ae664", "name": "神庫駅", "domain": "game", "product_id": "5ee0b97e-818f-4d4d-b921-1b6e2a89b6db" }, "geometry": { "type": "Point", "coordinates": [ 139.551147, 35.318593 ] } },
{ "type": "Feature", "properties": { "id": "dfc4d8f2-a8c1-4ac8-b124-07564c14cc34", "name": "百合ヶ浜海岸", "domain": "game", "product_id": "5ee0b97e-818f-4d4d-b921-1b6e2a89b6db" }, "geometry": { "type": "Point", "coordinates": [ 139.535592, 35.309268 ] } },
{ "type": "Feature", "properties": { "id": "49e7b946-0b91-4b02-8e6e-ea1042311b16", "name": "ローソン", "domain": "game", "product_id": "5ee0b97e-818f-4d4d-b921-1b6e2a89b6db" }, "geometry": { "type": "Point", "coordinates": [ 139.534025, 35.309082 ] } },
{ "type": "Feature", "properties": { "id": "a719f29a-b945-4ff5-9721-566f0ac88fc9", "name": "通勤路", "domain": "game", "product_id": "5ee0b97e-818f-4d4d-b921-1b6e2a89b6db" }, "geometry": { "type": "Point", "coordinates": [ 139.534426, 35.309951 ] } },
{ "type": "Feature", "properties": { "id": "4fb60198-e25f-4628-9c3a-295fb9c2c14b", "name": "無心庵", "domain": "book", "product_id": "de498692-7717-4cc6-97c0-e083831f458f" }, "geometry": { "type": "Point", "coordinates": [ 139.544974, 35.313709 ] } },
{ "type": "Feature", "properties": { "id": "2843b39b-1d17-4567-9101-ec3eda42f58b", "name": "ミルクホール", "domain": "book", "product_id": "8c06ef36-e5d2-4d43-a320-4d6ba6aa5d25" }, "geometry": { "type": "Point", "coordinates": [ 139.55144, 35.321157 ] } },
{ "type": "Feature", "properties": { "id": "5a564c4e-57b7-4e97-9713-6b70ebf165de", "name": "藤が谷女学院の坂道", "domain": "book", "product_id": "8c06ef36-e5d2-4d43-a320-4d6ba6aa5d25" }, "geometry": { "type": "Point", "coordinates": [ 139.539475, 35.314772 ] } },
{ "type": "Feature", "properties": { "id": "141463d4-bbe3-4cda-b40a-edf58095cdf9", "name": "ゆうひの丘", "domain": "game", "product_id": "f2de35be-60f0-494e-a8e9-376f8f35a1f5" }, "geometry": { "type": "Point", "coordinates": [ 139.460887, 35.641883 ] } },
{ "type": "Feature", "properties": { "id": "f6949e47-039f-45a7-85e6-22fbad399e07", "name": "聖蹟百合ヶ丘駅", "domain": "game", "product_id": "f2de35be-60f0-494e-a8e9-376f8f35a1f5" }, "geometry": { "type": "Point", "coordinates": [ 139.446872, 35.650545 ] } },
{ "type": "Feature", "properties": { "id": "27b6e998-89e3-41d6-b92c-2cf229f8caf3", "name": "通学路２", "domain": "game", "product_id": "f2de35be-60f0-494e-a8e9-376f8f35a1f5" }, "geometry": { "type": "Point", "coordinates": [ 139.446789, 35.64287 ] } },
{ "type": "Feature", "properties": { "id": "77db3f07-98ea-4fee-9c3c-cf52cd2bf6b1", "name": "通学路１（もうちょい奥）", "domain": "game", "product_id": "f2de35be-60f0-494e-a8e9-376f8f35a1f5" }, "geometry": { "type": "Point", "coordinates": [ 139.445435, 35.644304 ] } },
{ "type": "Feature", "properties": { "id": "02b4b1c8-1417-468d-8d85-2368bdae0e1b", "name": "ダイクロー", "domain": "game", "product_id": "ba4065a6-baf3-44e0-9f44-dbe69469652d" }, "geometry": { "type": "Point", "coordinates": [ 135.810603, 34.951836 ] } },
{ "type": "Feature", "properties": { "id": "5629148d-34e1-4a4a-83c8-5e8c306f727f", "name": "ED", "domain": "game", "product_id": "051f617a-bcb6-4c0a-8b18-16e64372dca1" }, "geometry": { "type": "Point", "coordinates": [ 135.785467, 34.994479 ] } },
{ "type": "Feature", "properties": { "id": "61685878-51e3-418e-8efc-b406adeed5fe", "name": "都部の隠れ里", "domain": "game", "product_id": "ba4065a6-baf3-44e0-9f44-dbe69469652d" }, "geometry": { "type": "Point", "coordinates": [ 135.851993, 34.93953 ] } }
]
}
